[
  {
    "name": "Jason Debiak",
    "location": "Ridgewood, NJ",
    "role": "Creative Director",
    "photo": "https://uinames.com/api/photos/male/1.jpg",
    "mail": "jason_debiak@example.com",
    "phone": "+7 419 706 6058"
  },
  {
    "name": "Mirko Santangelo",
    "location": "New York, USA",
    "role": "Senior Designer",
    "photo": "https://uinames.com/api/photos/male/2.jpg",
    "mail": "info@santangelo.me",
    "phone": "+7 144 556 6171"
  },
  {
    "name": "Michelle Perez",
    "location": "New Jersey",
    "role": "Freelancer",
    "photo": "https://uinames.com/api/photos/female/1.jpg",
    "mail": "michelle@yahoo.com",
    "phone": "+7 419 706 6058"
  },
  {
    "name": "Mark Maynard",
    "location": "Atlanta Georgia",
    "role": "Senior UI/UX Designer",
    "photo": "https://uinames.com/api/photos/male/3.jpg",
    "mail": "may.designer@neednonames.com",
    "phone": "+7 782 994 5853"
  },
  {
    "name": "Shaban Iddrisu",
    "location": "Dubai, UAE",
    "role": "Ui/Ux & Brand Designer",
    "photo": "https://uinames.com/api/photos/male/4.jpg",
    "mail": "s.iddrisu@gmail.com",
    "phone": "+7 663 804 9496"
  },
  {
    "name": "Sara Nicely",
    "location": "Los Angeles",
    "role": "Independent Designer & Illustrator",
    "photo": "https://uinames.com/api/photos/female/2.jpg",
    "mail": "saramnice@gmail.com",
    "phone": "+7 722 339 9376"
  },
  {
    "name": "Michael Delgado",
    "location": "United States",
    "role": "Product Designer",
    "photo": "https://uinames.com/api/photos/male/5.jpg",
    "mail": "michael_89@example.com",
    "phone": "+7 546 863 7877"
  },
  {
    "name": "John Hall",
    "location": "Durham, United Kingdom",
    "role": "Visual Designer",
    "photo": "https://uinames.com/api/photos/male/6.jpg",
    "mail": "John_Hall@mail.com",
    "phone": "+7 912 457 9775"
  }
]
